<?xml version="1.0" ?><sites>
  <location name="Checkers" active="1" address1="North Delsea Drive" city="Glassboro" delivery="0" lat="39.7202502" lng="-75.1152579" onlineorder="0" photo="Checkers.jpg" rid="41" type="Fast Food" website="http://checkers.com/" zip="NJ" />
  <location name="Arby's" active="1" address1="1058 N. Delsea Drive" city="Glassboro" delivery="0" lat="39.7234603" lng="-75.1152149" onlineorder="0" photo="Arbys.jpg" rid="42" type="Fast Food" zip="08028" />
  <location name="Tomo Sushi" active="1" address1="806 Delsea Dr N" city="Glassboro" delivery="0" lat="39.7204182" lng="-75.1124147" onlineorder="0" phone="8565826699" photo="Tomo_Sushi.jpg" rid="8" type="Japanese" zip="08028" />
  <location name="La China Poblana Restaurant" active="0" address1="512 Delsea Dr." city="Glassboro" delivery="0" lat="39.7148835" lng="-75.1120181" onlineorder="0" phone="8568811871" photo="La_China_Poblana.jpg" rid="9" type="Mexican" zip="08028" />
  <location name="Burger King" active="1" address1="410 N. Delsea Dr." city="Glassboro" delivery="0" lat="39.7129248" lng="-75.1110857" onlineorder="0" photo="Burger_King.jpg" rid="11" type="Fast Food" zip="08028" />
  <location name="Taco Bell " active="1" address1="322 N. Delsea Dr." city="Glassboro" delivery="0" lat="39.7103613" lng="-75.1100180" onlineorder="0" phone="8568811602" photo="Taco_Bell.jpg" rid="13" type="Fast Food" zip="08028" />
  <location name="Dunkin Donuts " active="1" address1="658 N. Delsea Dr." city="Glassboro" delivery="0" lat="39.7174887" lng="-75.1130388" onlineorder="0" photo="Dunkin_Donuts.jpg" rid="14" type="Fast Food" zip="08028" />
  <location name="Hollywood Tans" active="1" address1="783 Delsea Dr." city="Glassboro" delivery="0" lat="39.7231420" lng="-75.1170912" onlineorder="0" phone="8564420016" photo="Hollywood_Tans.jpg" rid="15" type="Health and Beauty" website="http://www.hollywoodtans.com/" zip="08028" />
  <location name="Glassboro Bowling Center" active="1" address1="503 Delsea Dr N" city="Glassboro" delivery="0" lat="39.7139734" lng="-75.1121901" onlineorder="0" phone="8568811011" photo="Glassboro_Bowling.jpg" rid="16" type="Recreation" zip="08028" />
  <location name="Ciconte's Pizza " active="1" address1="323 Mullica Hill Rd. " city="Glassboro" delivery="1" lat="39.7110903" lng="-75.1263660" onlineorder="0" phone="8568814412" photo="Cicontes_Pizza.jpg" rid="17" type="Pizza" zip="08028" />
  <location name="Wendy's" active="1" address1="685 N. Delsea Drive" city="Glassboro" delivery="0" lat="39.7187571" lng="-75.1144107" onlineorder="0" phone="8568633980" photo="Wendys.jpg" rid="19" type="Fast Food" zip="08028" />
  <location name="Glassboro Thrift Village" active="1" address1="169 S. Delsea Dr." city="Glassboro" delivery="0" lat="39.6884507" lng="-75.1008548" onlineorder="0" phone="8568635558" photo="Glassboro_Thrift_Village.jpg" rid="20" type="Other Shopping" website="http://www.gtvtreasures.com/" zip="08028" />
  <location name="Heritages Dairy (Main St)" active="1" address1="505 N. Main St." city="Glassboro" delivery="0" lat="39.7126289" lng="-75.1120687" onlineorder="0" photo="Heritages-2.jpg" rid="21" type="Convenience Store" zip="08028" />
  <location name="Heritages Dairy (US 322)" active="1" address1="525 Mullica Hill Rd." city="Glassboro" delivery="0" lat="39.7125445" lng="-75.1305629" onlineorder="0" photo="Heritages.jpg" rid="22" type="Convenience Store" zip="08028" />
  <location name="Hair 2 There " active="1" address1="7 State St." city="Glassboro" delivery="0" lat="39.7026304" lng="-75.1071174" onlineorder="0" phone="8568633600" photo="Hair_2_There.jpg" rid="23" type="Health and Beauty" zip="08028" />
  <location name="7-Eleven" active="1" address1="725 N. Main Street" city="Glassboro" delivery="0" lat="39.7175242" lng="-75.1169392" onlineorder="0" phone="8568816322" photo="7_Eleven.jpg" rid="24" type="Convenience Store" zip="08028" />
  <location name="Samurai Japanese Steak House " active="1" address1="646 N. Delsea Dr." city="Glassboro" delivery="0" lat="39.7171137" lng="-75.1122360" onlineorder="0" phone="8568817788" photo="Samurai.jpg" rid="25" type="Japanese" website="http://www.samurai-house.net/" zip="08028" />
  <location name="Zallie's Shop Rite" active="1" address1="201 Dalton Dr." city="Glassboro" delivery="0" lat="39.7195318" lng="-75.1098540" onlineorder="0" phone="8568633700" photo="Shop_Rite.jpg" rid="26" type="Supermarket" zip="08028" />
  <location name="Hunan Wok" active="1" address1="323 Mullica Hill Rd. " city="Glassboro" delivery="1" lat="39.7111543" lng="-75.1265887" onlineorder="0" phone="8568818981" photo="Hunan_Wok.jpg" rid="27" type="Chinese" website="http://www.yummymenu.com/hunanwok.htm" zip="08028" />
  <location name="Ming Lok" active="1" address1="22 Pitman Ave." city="Pitman" delivery="1" lat="39.7319710" lng="-75.1294366" onlineorder="0" phone="8565896161" photo="Ming_Lok.jpg" rid="28" type="Chinese" zip="08071" />
  <location name="CVS/pharmacy" active="1" address1="250 N. Delsea Drive " city="Glassboro" delivery="0" lat="39.7239054" lng="-75.1150685" onlineorder="0" phone="8568632200" photo="CVS.jpg" rid="29" type="Health and Beauty" website="http://www.cvs.com/CVSApp/cvs/gateway/cvsmain" zip="08028" />
  <location name="Esgro's Deli" active="1" address1="12 Girard Road" city="Glassboro" delivery="0" lat="39.7046707" lng="-75.1223477" onlineorder="0" phone="8568639200" photo="Esgros_Deli.jpg" rid="30" type="Deli" zip="08028" />
  <location name="Little Beef's" active="1" address1="114 W. High Street" city="Glassboro" delivery="1" lat="39.7031151" lng="-75.1137995" onlineorder="0" phone="8568636770" photo="Little_Beefs.jpg" rid="31" type="Restaurant" website="http://www.littlebeefs.com/" zip="08028" />
  <location name="Glassboro McDonald's" active="1" address1="656 N. Delsea Drive" city="Glassboro" delivery="0" lat="39.7170155" lng="-75.1129099" onlineorder="0" phone="8568812311" photo="McDonalds.jpg" rid="32" type="Fast Food" zip="08028" />
  <location name="Bellia Copy Center " active="1" address1="698 Delsea Dr N # 1" city="Glassboro" delivery="0" lat="39.7189738" lng="-75.1103624" onlineorder="0" phone="8568638881" photo="Bellia.jpg" rid="33" type="Other Shopping" website="http://wb012.britlink.com/BL5/bellia" zip="08028" />
  <location name="Saladworks " active="1" address1="791 N. Delsea Drive " city="Glassboro" delivery="0" lat="39.7222123" lng="-75.1159615" onlineorder="0" phone="8568632200" photo="Saladworks.jpg" rid="34" type="Restaurant" website="http://www.saladworks.com/" zip="08028" />
  <location name="Nick's Pizzeria" active="1" address1="644 N. Delsea Dr." city="Glassboro" delivery="1" lat="39.7171812" lng="-75.1119735" onlineorder="0" phone="8563071100" photo="Nicks_Pizza.jpg" rid="35" type="Pizza" website="http://nickspizzaonline.com/" zip="08028" />
  <location name="Scissor Wizards" active="1" address1="Collegetown Plaza" city="Glassboro" delivery="0" lat="39.7214715" lng="-75.1167599" onlineorder="0" phone="8568814247" photo="Scissor_Wizards.jpg" rid="38" type="Health and Beauty" zip="08028" />
  <location name="Subway" active="1" address1="Collegetown Plaza" address2="757 N. Delsea Drive" city="Glassboro" delivery="0" lat="39.7217356" lng="-75.1168672" onlineorder="0" phone="8562702513" photo="Subway.jpg" rid="39" type="Fast Food" zip="08028" />
  <location name="Friendly's" active="1" address1="North Delsea Drive" city="Glassboro" delivery="0" lat="39.7246568" lng="-75.1153651" onlineorder="0" phone="8565892488" photo="Friendlys.jpg" rid="40" type="Restaurant" zip="08028" />
<location name="Bomb Bomb BBQ" active="1" address1="22 East High Street" city="Glassboro" delivery="1" lat="39.7025054" lng="-75.1114062" onlineorder="0" photo="BombBombBBQ.jpg" rid="43" type="Restaurant" website="http://www.bombbomb-restaurant.com/" zip="08028" phone="8562435119"/>
<location name="Expo Nails" active="1" address1="808 Delsea Drive" city="Glassboro" delivery="0" lat="39.7202832" lng="-75.1131465" onlineorder="0" photo="ExpoNails.jpg" rid="44" type="Health and Beauty" zip="08028" phone="8562188818"/>
<location name="Papa John's" active="1" address1="Delsea Drive and William Dalton Drive" city="Glassboro" delivery="1" lat="39.7203492" lng="-75.1123870" onlineorder="1" photo="PapaJohns.jpg" rid="45" type="Pizza" website="http://www.papajohns.com/" zip="08028" phone="8568638383"/>
<location name="Tantini Tanning Bar" active="1" address1="172 William L. Dalton Drive" city="Glassboro" delivery="0" lat="39.7190123" lng="-75.1109408" onlineorder="0" photo="Tantini.jpg" rid="46" type="Health and Beauty" zip="08028" phone="8888268464"/>
<location name="Crown Fried Chicken and Taco" active="1" address1="21 High Street East" city="Glassboro" delivery="1" lat="39.702701" lng="-75.111047" onlineorder="0" photo="" rid="47" type="Restaurant" zip="08028" phone="8568810079"/>
</sites>
